[
    {
        "Aishe Code":"U-0934",
        "Name":"SRM University-AP, Amaravati",
        "State":"Andhra Pradesh",
        "District":"Guntur",
        "Website":"www.srmap.edu.in",
        "Year Of Establishment":"2017",
        "Location":"Rural"
    },
    {
        "Aishe Code":"U-1111",
        "Name":"KREA UNIVERSITY",
        "State":"Andhra Pradesh",
        "District":"Chittoor",
        "Website":"krea.edu.in",
        "Year Of Establishment":"2018",
        "Location":"Rural"
    },
    {
        "Aishe Code":"U-0827",
        "Name":"Indian Institute of Science Education & Research (IISER), Tirupati",
        "State":"Andhra Pradesh",
        "District":"Chittoor",
        "Website":"www.iisertirupati.ac.in",
        "Year Of Establishment":"2015",
        "Location":"Rural"
    },
    {
        "Aishe Code":"U-1310",
        "Name":"The Apollo University",
        "State":"Andhra Pradesh",
        "District":"Chittoor",
        "Website":"https:\/\/apollouniversity.edu.in\/",
        "Year Of Establishment":"-",
        "Location":"Urban"
    },
    {
        "Aishe Code":"U-0998",
        "Name":"DR. ABDUL HAQ URDU UNIVERSITY",
        "State":"Andhra Pradesh",
        "District":"Kurnool",
        "Website":"www.ahuuk.ac.in ",
        "Year Of Establishment":"2016",
        "Location":"Urban"
    },
    {
        "Aishe Code":"U-1177",
        "Name":"Dr YSR Architecture and Fine Arts University",
        "State":"Andhra Pradesh",
        "District":"Y.S.R.",
        "Website":"www.ysrafu.ac.in",
        "Year Of Establishment":"2020",
        "Location":"Rural"
    }
]